{"rubro":"Tecnico de celulares","ubicacion":"Mendoza","desde_cache":true,"resultados":[{"title":"NeoTec Servicio Técnico en Celulares","categoryName":"Tienda de reparación de teléfonos móviles","categories":["Tienda de reparación de teléfonos móviles"],"address":"Patricias Mendocinas 2879, M5500 Mendoza, Argentina","city":null,"state":"Mendoza","phone":"+54 261 252-6325","website":null,"location":{"lat":-32.8692315,"lng":-68.8374837},"totalScore":4.8,"reviewsCount":113,"price":null,"openingHours":[{"day":"martes","hours":"10 AM to 2 PM, 4 to 8 PM"},{"day":"miércoles","hours":"10 AM to 2 PM, 4 to 8 PM"},{"day":"jueves","hours":"10 AM to 2 PM, 4 to 8 PM"},{"day":"viernes","hours":"10 AM to 2 PM, 4 to 8 PM"},{"day":"sábado","hours":"10 AM to 6 PM"},{"day":"domingo","hours":"Cerrado"},{"day":"lunes","hours":"10 AM to 2 PM, 4 to 8 PM"}],"url":"https://www.google.com/maps/search/?api=1&query=NeoTec%20Servicio%20T%C3%A9cnico%20en%20Celulares&query_place_id=ChIJ221G-kIJfpYRq4Y3ZsW6HDw","tags":["muchas_reseñas"]},{"title":"ODall Electronics","categoryName":"Tienda de accesorios para móviles","categories":["Tienda de accesorios para móviles","Tienda de accesorios informáticos","Tienda de reparación de teléfonos móviles"],"address":"Catamarca 71, M5500 Mendoza, Argentina","city":null,"state":"Mendoza","phone":"+54 261 363-9050","website":"https://www.instagram.com/odallelectronic/","location":{"lat":-32.8897942,"lng":-68.8375114},"totalScore":4.8,"reviewsCount":55,"price":null,"openingHours":[{"day":"martes","hours":"10 AM to 2 PM, 3 to 8 PM"},{"day":"miércoles","hours":"10 AM to 2 PM, 3 to 8 PM"},{"day":"jueves","hours":"10 AM to 2 PM, 3 to 8 PM"},{"day":"viernes","hours":"10 AM to 2 PM, 3 PM to 12 AM"},{"day":"sábado","hours":"12 to 8 AM, 10 AM to 2 PM"},{"day":"domingo","hours":"Cerrado"},{"day":"lunes","hours":"10 AM to 2 PM, 3 to 8 PM"}],"url":"https://www.google.com/maps/search/?api=1&query=ODall%20Electronics&query_place_id=ChIJt8N0SA4JfpYRLpCRr2hpl8I","tags":["sitio_web_disponible","muchas_reseñas"]},{"title":"iRepair - Servicio Técnico Apple, Smartphones y Notebooks | Mendoza","categoryName":"Tienda de reparación de teléfonos móviles","categories":["Tienda de reparación de teléfonos móviles","Tienda de accesorios para móviles","Servicio de informática","Servicio de reparación de teléfonos"],"address":"Av. José Vicente Zapata 395, M5500 Mendoza, Argentina","city":null,"state":"Mendoza","phone":"+54 9 261 663-5390","website":null,"location":{"lat":-32.8961732,"lng":-68.8350623},"totalScore":4.9,"reviewsCount":74,"price":null,"openingHours":[{"day":"martes","hours":"10 AM to 6 PM"},{"day":"miércoles","hours":"10 AM to 6 PM"},{"day":"jueves","hours":"10 AM to 6 PM"},{"day":"viernes","hours":"10 AM to 6 PM"},{"day":"sábado","hours":"10 AM to 1 PM"},{"day":"domingo","hours":"Cerrado"},{"day":"lunes","hours":"10 AM to 6 PM"}],"url":"https://www.google.com/maps/search/?api=1&query=iRepair%20-%20Servicio%20T%C3%A9cnico%20Apple%2C%20Smartphones%20y%20Notebooks%20%7C%20Mendoza&query_place_id=ChIJdbnOXW4JfpYRxF6eD_52AW0","tags":["muchas_reseñas"]},{"title":"LA CLINICA DEL CELULAR","categoryName":"Tienda de reparación de teléfonos móviles","categories":["Tienda de reparación de teléfonos móviles","Tienda de accesorios para móviles","Tienda de móviles"],"address":"Paso de los Andes 1205, M5501 Godoy Cruz, Mendoza, Argentina","city":"Godoy Cruz","state":"Mendoza","phone":"+54 261 245-2253","website":"http://www.facebook.com/laclinicadelcelularmza","location":{"lat":-32.9135543,"lng":-68.8595876},"totalScore":4.2,"reviewsCount":341,"price":null,"openingHours":[{"day":"martes","hours":"9 AM to 1 PM, 4 to 8 PM"},{"day":"miércoles","hours":"9 AM to 1 PM, 4 to 8 PM"},{"day":"jueves","hours":"9 AM to 1 PM, 4 to 8 PM"},{"day":"viernes","hours":"9 AM to 1 PM, 4 to 8 PM"},{"day":"sábado","hours":"10 AM to 2 PM"},{"day":"domingo","hours":"Cerrado"},{"day":"lunes","hours":"9 AM to 1 PM, 4 to 8 PM"}],"url":"https://www.google.com/maps/search/?api=1&query=LA%20CLINICA%20DEL%20CELULAR&query_place_id=ChIJFwnkkJ0JfpYRVklXjv3NUwA","tags":["sitio_web_disponible","muchas_reseñas"]},{"title":"Todomovil - Servicio técnico Apple y Garmin","categoryName":"Comercio","categories":["Comercio"],"address":"DEA, Beltrán 887, M5504 Godoy Cruz, Mendoza, Argentina","city":"Godoy Cruz","state":"Mendoza","phone":"+54 261 396-0340","website":"https://www.todomovil.com.ar/","location":{"lat":-32.914336,"lng":-68.8506661},"totalScore":4.4,"reviewsCount":339,"price":null,"openingHours":[{"day":"martes","hours":"8:30 AM to 8 PM"},{"day":"miércoles","hours":"8:30 AM to 8 PM"},{"day":"jueves","hours":"8:30 AM to 8 PM"},{"day":"viernes","hours":"8:30 AM to 8 PM"},{"day":"sábado","hours":"9 AM to 1 PM"},{"day":"domingo","hours":"Cerrado"},{"day":"lunes","hours":"8:30 AM to 8 PM"}],"url":"https://www.google.com/maps/search/?api=1&query=Todomovil%20-%20Servicio%20t%C3%A9cnico%20Apple%20y%20Garmin&query_place_id=ChIJ82rdnnAJfpYRVeNBEpkB12Y","tags":["sitio_web_disponible","muchas_reseñas"]},{"title":"FIXEL MENDOZA","categoryName":"Tienda de reparación de teléfonos móviles","categories":["Tienda de reparación de teléfonos móviles"],"address":"Martínez de Rozas 15, M5500 Ciudad, Mendoza, Argentina","city":"Ciudad","state":"Mendoza","phone":"+54 9 261 205-5955","website":"https://www.facebook.com/profile.php?id=100017489357247","location":{"lat":-32.901525,"lng":-68.857019},"totalScore":4.6,"reviewsCount":12,"price":null,"openingHours":[{"day":"martes","hours":"10 AM to 6 PM"},{"day":"miércoles","hours":"10 AM to 6 PM"},{"day":"jueves","hours":"10 AM to 6 PM"},{"day":"viernes","hours":"10 AM to 6 PM"},{"day":"sábado","hours":"Cerrado"},{"day":"domingo","hours":"Cerrado"},{"day":"lunes","hours":"10 AM to 6 PM"}],"url":"https://www.google.com/maps/search/?api=1&query=FIXEL%20MENDOZA&query_place_id=ChIJmaiqnQsJfpYRKpBqlkuUk68","tags":["sitio_web_disponible","muchas_reseñas"]},{"title":"Mundo Tecnico","categoryName":"Tienda de reparación de teléfonos móviles","categories":["Tienda de reparación de teléfonos móviles"],"address":"Primitivo de la Reta 1016, M5500 Mendoza, Argentina","city":null,"state":"Mendoza","phone":"+54 261 217-2837","website":"http://mundotecnico.net/","location":{"lat":-32.8914913,"lng":-68.8384097},"totalScore":5,"reviewsCount":7,"price":null,"openingHours":[{"day":"martes","hours":"9 AM to 7 PM"},{"day":"miércoles","hours":"9 AM to 7 PM"},{"day":"jueves","hours":"9 AM to 7 PM"},{"day":"viernes","hours":"9 AM to 7 PM"},{"day":"sábado","hours":"10 AM to 3 PM"},{"day":"domingo","hours":"Cerrado"},{"day":"lunes","hours":"9 AM to 7 PM"}],"url":"https://www.google.com/maps/search/?api=1&query=Mundo%20Tecnico&query_place_id=ChIJL_VEPgAJfpYRQkmbJU5lSzk","tags":["sitio_web_disponible","muchas_reseñas"]},{"title":"ifix Store - Servicio técnico Apple","categoryName":"Tienda de reparación de teléfonos móviles","categories":["Tienda de reparación de teléfonos móviles"],"address":"Almte. Brown 1590, M5501 Godoy Cruz, Mendoza, Argentina","city":"Godoy Cruz","state":"Mendoza","phone":"+54 261 704-7030","website":"http://ifixstore.com.ar/","location":{"lat":-32.9082136,"lng":-68.8465607},"totalScore":4.7,"reviewsCount":256,"price":null,"openingHours":[{"day":"martes","hours":"10 AM to 6:30 PM"},{"day":"miércoles","hours":"10 AM to 6:30 PM"},{"day":"jueves","hours":"10 AM to 6:30 PM"},{"day":"viernes","hours":"10 AM to 6:30 PM"},{"day":"sábado","hours":"10 AM to 1 PM"},{"day":"domingo","hours":"Cerrado"},{"day":"lunes","hours":"10 AM to 6:30 PM"}],"url":"https://www.google.com/maps/search/?api=1&query=ifix%20Store%20-%20Servicio%20t%C3%A9cnico%20Apple&query_place_id=ChIJXzQSrugJfpYRiQu6ItBYNjQ","tags":["sitio_web_disponible","muchas_reseñas"]},{"title":"Phone Fixer - Servicio Técnico","categoryName":"Tienda de reparación de teléfonos móviles","categories":["Tienda de reparación de teléfonos móviles"],"address":"Cabildo Abierto 1198, M5501 Godoy Cruz, Mendoza, Argentina","city":"Godoy Cruz","state":"Mendoza","phone":"+54 261 575-9786","website":"https://atom.bio/phonefixer-serviciotecnico","location":{"lat":-32.9188115,"lng":-68.8582672},"totalScore":4.8,"reviewsCount":22,"price":null,"openingHours":[{"day":"martes","hours":"9 AM to 9 PM"},{"day":"miércoles","hours":"9 AM to 9 PM"},{"day":"jueves","hours":"9 AM to 9 PM"},{"day":"viernes","hours":"9 AM to 9 PM"},{"day":"sábado","hours":"9 AM to 9 PM"},{"day":"domingo","hours":"9 AM to 9 PM"},{"day":"lunes","hours":"9 AM to 9 PM"}],"url":"https://www.google.com/maps/search/?api=1&query=Phone%20Fixer%20-%20Servicio%20T%C3%A9cnico&query_place_id=ChIJdSzA9owJfpYRZx9lEa3S-Zw","tags":["sitio_web_disponible","muchas_reseñas"]},{"title":"centercel gsm","categoryName":"Tienda de accesorios para móviles","categories":["Tienda de accesorios para móviles","Servicio de reparación de teléfonos"],"address":"Lavalle 187, M5500 Mendoza, Argentina","city":null,"state":"Mendoza","phone":"+54 261 661-6161","website":null,"location":{"lat":-32.8887368,"lng":-68.8356548},"totalScore":4.7,"reviewsCount":147,"price":null,"openingHours":[{"day":"martes","hours":"9 AM to 6:30 PM"},{"day":"miércoles","hours":"9 AM to 6:30 PM"},{"day":"jueves","hours":"9 AM to 6:30 PM"},{"day":"viernes","hours":"9 AM to 6:30 PM"},{"day":"sábado","hours":"10 AM to 1:30 PM"},{"day":"domingo","hours":"Cerrado"},{"day":"lunes","hours":"9 AM to 6:30 PM"}],"url":"https://www.google.com/maps/search/?api=1&query=centercel%20gsm&query_place_id=ChIJDV4e63MJfpYRp4IxcBuc31w","tags":["muchas_reseñas"]},{"title":"CALO servicio técnico celular","categoryName":"Categoria principal desconocida","categories":[],"address":"Paso de los Andes 603, M5501 Godoy Cruz, Mendoza, Argentina","city":"Godoy Cruz","state":"Mendoza","phone":"+54 261 661-7944","website":null,"location":{"lat":-32.9193291,"lng":-68.8593546},"totalScore":4.8,"reviewsCount":12,"price":null,"openingHours":[{"day":"martes","hours":"11 AM to 2 PM, 5:30 to 9 PM"},{"day":"miércoles","hours":"11 AM to 2 PM, 5:30 to 9 PM"},{"day":"jueves","hours":"11 AM to 2 PM, 5:30 to 9 PM"},{"day":"viernes","hours":"11 AM to 2 PM, 5:30 to 9 PM"},{"day":"sábado","hours":"11 AM to 2 PM, 5:30 to 9 PM"},{"day":"domingo","hours":"Cerrado"},{"day":"lunes","hours":"11 AM to 2 PM, 5:30 to 9 PM"}],"url":"https://www.google.com/maps/search/?api=1&query=CALO%20servicio%20t%C3%A9cnico%20celular&query_place_id=ChIJ9Wxr2WwLfpYRJNdLohicZ-A","tags":["muchas_reseñas"]},{"title":"LEANDROID","categoryName":"Tienda de reparación de teléfonos móviles","categories":["Tienda de reparación de teléfonos móviles"],"address":"Lavalle 130, M5501 Godoy Cruz, Mendoza, Argentina","city":"Godoy Cruz","state":"Mendoza","phone":"+54 9 261 334-6244","website":null,"location":{"lat":-32.925787,"lng":-68.84561},"totalScore":4.9,"reviewsCount":25,"price":null,"openingHours":[{"day":"martes","hours":"10 AM to 6 PM"},{"day":"miércoles","hours":"10 AM to 6 PM"},{"day":"jueves","hours":"10 AM to 6 PM"},{"day":"viernes","hours":"10 AM to 6 PM"},{"day":"sábado","hours":"10 AM to 2 PM"},{"day":"domingo","hours":"Cerrado"},{"day":"lunes","hours":"10 AM to 6 PM"}],"url":"https://www.google.com/maps/search/?api=1&query=LEANDROID&query_place_id=ChIJvZBOgM8LfpYRc2XdtYZb_Wc","tags":["muchas_reseñas"]},{"title":"Iphone Servicio técnico Especializado, (NO SE VENDEN TELEFONOS)","categoryName":"Tienda de móviles","categories":["Tienda de móviles"],"address":"Galeria tonsa, Av. San Martín 1173 Local saturno 52, M5500 Mendoza, Argentina","city":null,"state":"Mendoza","phone":"+54 261 684-2088","website":null,"location":{"lat":-32.8902574,"lng":-68.8390499},"totalScore":4.9,"reviewsCount":52,"price":null,"openingHours":[{"day":"martes","hours":"9 AM to 1:30 PM, 4:30 to 7 PM"},{"day":"miércoles","hours":"9 AM to 1:30 PM, 4:30 to 7 PM"},{"day":"jueves","hours":"9 AM to 1:30 PM, 4:30 to 7 PM"},{"day":"viernes","hours":"9 AM to 1:30 PM, 4:30 to 7 PM"},{"day":"sábado","hours":"Cerrado"},{"day":"domingo","hours":"Cerrado"},{"day":"lunes","hours":"9 AM to 1:30 PM, 4:30 to 7 PM"}],"url":"https://www.google.com/maps/search/?api=1&query=Iphone%20Servicio%20t%C3%A9cnico%20Especializado%2C%20(NO%20SE%20VENDEN%20TELEFONOS)&query_place_id=ChIJr593vBkJfpYRtrrZB6e3bT8","tags":["muchas_reseñas"]},{"title":"CELUCIONES_MZA","categoryName":"Tienda de reparación de teléfonos móviles","categories":["Tienda de reparación de teléfonos móviles"],"address":"Gral. Espejo 64, M5500 Mendoza, Argentina","city":null,"state":"Mendoza","phone":"+54 9 263 420-3530","website":null,"location":{"lat":-32.8894719,"lng":-68.8401093},"totalScore":4.6,"reviewsCount":135,"price":null,"openingHours":[{"day":"martes","hours":"10 AM to 7 PM"},{"day":"miércoles","hours":"10 AM to 7 PM"},{"day":"jueves","hours":"10 AM to 7 PM"},{"day":"viernes","hours":"10 AM to 7 PM"},{"day":"sábado","hours":"10 AM to 2 PM"},{"day":"domingo","hours":"Cerrado"},{"day":"lunes","hours":"10 AM to 7 PM"}],"url":"https://www.google.com/maps/search/?api=1&query=CELUCIONES_MZA&query_place_id=ChIJJSSYghkJfpYROeF8WayaTnQ","tags":["muchas_reseñas"]},{"title":"TECHMARKET - Servicio Técnico y Venta de Celulares I Aristides, Mendoza","categoryName":"Tienda de reparación de teléfonos móviles","categories":["Tienda de reparación de teléfonos móviles","Tienda de accesorios para móviles","Tienda de móviles"],"address":"Arístides Villanueva 250, M5500 Mendoza, Argentina","city":null,"state":"Mendoza","phone":"+54 261 519-6797","website":"http://tech-market.com.ar/","location":{"lat":-32.8928048,"lng":-68.8539281},"totalScore":4.6,"reviewsCount":1230,"price":null,"openingHours":[{"day":"martes","hours":"9 AM to 8 PM"},{"day":"miércoles","hours":"9 AM to 8 PM"},{"day":"jueves","hours":"9 AM to 8 PM"},{"day":"viernes","hours":"9 AM to 8 PM"},{"day":"sábado","hours":"10 AM to 2 PM"},{"day":"domingo","hours":"Cerrado"},{"day":"lunes","hours":"9 AM to 8 PM"}],"url":"https://www.google.com/maps/search/?api=1&query=TECHMARKET%20-%20Servicio%20T%C3%A9cnico%20y%20Venta%20de%20Celulares%20I%20Aristides%2C%20Mendoza&query_place_id=ChIJPVVqaAYJfpYRi76YBbM4VGw","tags":["sitio_web_disponible","muchas_reseñas"]},{"title":"MENDOFIX Repair Service Provider","categoryName":"Tienda de accesorios para móviles","categories":["Tienda de accesorios para móviles"],"address":"M5500GMA Mendoza AR, Catamarca 112, M5500 GMA, Argentina","city":"GMA","state":"Mendoza","phone":"+54 261 677-1767","website":"http://www.mendofix.com/","location":{"lat":-32.8896039,"lng":-68.836785},"totalScore":4.5,"reviewsCount":337,"price":null,"openingHours":[{"day":"martes","hours":"10 AM to 7 PM"},{"day":"miércoles","hours":"10 AM to 7 PM"},{"day":"jueves","hours":"10 AM to 7 PM"},{"day":"viernes","hours":"10 AM to 7 PM"},{"day":"sábado","hours":"10 AM to 2 PM"},{"day":"domingo","hours":"Cerrado"},{"day":"lunes","hours":"10 AM to 7 PM"}],"url":"https://www.google.com/maps/search/?api=1&query=MENDOFIX%20Repair%20Service%20Provider&query_place_id=ChIJ5cIM1ykJfpYRT8lKOVaCIuE","tags":["sitio_web_disponible","muchas_reseñas"]},{"title":"TecnoLab Suc. Dorrego","categoryName":"Tienda de reparación de teléfonos móviles","categories":["Tienda de reparación de teléfonos móviles"],"address":"Moldes 635, M5519 Guaymallén, Mendoza, Argentina","city":"Guaymallén","state":"Mendoza","phone":"+54 261 469-9026","website":"https://www.instagram.com/tecnolabmza/?hl=es","location":{"lat":-32.9132971,"lng":-68.8322202},"totalScore":4.8,"reviewsCount":163,"price":null,"openingHours":[{"day":"martes","hours":"10 AM to 2 PM, 3 to 7 PM"},{"day":"miércoles","hours":"10 AM to 2 PM, 3 to 7 PM"},{"day":"jueves","hours":"10 AM to 2 PM, 3 to 7 PM"},{"day":"viernes","hours":"10 AM to 2 PM, 3 to 7 PM"},{"day":"sábado","hours":"10 AM to 1 PM"},{"day":"domingo","hours":"Cerrado"},{"day":"lunes","hours":"10 AM to 2 PM, 3 to 7 PM"}],"url":"https://www.google.com/maps/search/?api=1&query=TecnoLab%20Suc.%20Dorrego&query_place_id=ChIJ88BCEWUJfpYRkwhU3A-QeOs","tags":["sitio_web_disponible","muchas_reseñas"]},{"title":"Nicolas Callo - Servicio Tecnico","categoryName":"Tienda de reparación de teléfonos móviles","categories":["Tienda de reparación de teléfonos móviles"],"address":"Aconcagua 80, M5501 Godoy Cruz, Mendoza, Argentina","city":"Godoy Cruz","state":"Mendoza","phone":"+54 261 532-4153","website":"https://www.instagram.com/nicolascallost/","location":{"lat":-32.9219584,"lng":-68.8469056},"totalScore":5,"reviewsCount":159,"price":null,"openingHours":[{"day":"martes","hours":"11 AM to 7 PM"},{"day":"miércoles","hours":"11 AM to 7 PM"},{"day":"jueves","hours":"11 AM to 7 PM"},{"day":"viernes","hours":"11 AM to 7 PM"},{"day":"sábado","hours":"Cerrado"},{"day":"domingo","hours":"Cerrado"},{"day":"lunes","hours":"11 AM to 7 PM"}],"url":"https://www.google.com/maps/search/?api=1&query=Nicolas%20Callo%20-%20Servicio%20Tecnico&query_place_id=ChIJycso0P4JfpYRDpWm5rtwIQM","tags":["sitio_web_disponible","muchas_reseñas"]},{"title":"BLAS TECH Servicio Técnico","categoryName":"Tienda de reparación de teléfonos móviles","categories":["Tienda de reparación de teléfonos móviles"],"address":"Catamarca 403, M5500 Mendoza, Argentina","city":null,"state":"Mendoza","phone":"+54 261 571-6704","website":"https://www.facebook.com/profile.php?id=100087414973830&mibextid=ZbWKwL","location":{"lat":-32.8901671,"lng":-68.8326463},"totalScore":4.3,"reviewsCount":30,"price":null,"openingHours":[{"day":"martes","hours":"8:30 to 19:00"},{"day":"miércoles","hours":"8:30 to 19:00"},{"day":"jueves","hours":"8:30 to 19:00"},{"day":"viernes","hours":"8:30 to 19:00"},{"day":"sábado","hours":"8:30 to 19:00"},{"day":"domingo","hours":"Cerrado"},{"day":"lunes","hours":"8:30 to 19:00"}],"url":"https://www.google.com/maps/search/?api=1&query=BLAS%20TECH%20Servicio%20T%C3%A9cnico&query_place_id=ChIJFdZoYc8JfpYR3ka1RoglOrw","tags":["sitio_web_disponible","muchas_reseñas"]}],"resumen_IA":null,"mensaje_resumen":"No se encontró resumen de IA en cache, se generará."}